timestamp(unix),attitude_roll(radians),attitude_pitch(radians),attitude_yaw(radians),rotation_rate_x(radians/s),rotation_rate_y(radians/s),rotation_rate_z(radians/s),gravity_x(G),gravity_y(G),gravity_z(G),user_acc_x(G),user_acc_y(G),user_acc_z(G),magnetic_field_x(microteslas),magnetic_field_y(microteslas),magnetic_field_z(microteslas),latitude(degree),longitude(degree),altitude(meter),speed(m/s),course(degree),timestamp(unix),User Mark
1524434583.084863,0.008491,0.153950,2.066407,-0.001119,-0.000527,0.000201,0.008391,-0.153342,-0.988137,0.000765,-0.005105,0.014321,20.573669,-20.521252,-51.346985,,,,,,,
,,,,,,,,,,,,,,,,42.293402,-71.264241,59.832619,-1.000000,-1.000000,1524434490.521150,
,,,,,,,,,,,,,,,,42.293402,-71.264241,59.832619,-1.000000,-1.000000,1524434499.521150,
1524434583.104882,0.008463,0.153892,2.066411,-0.003245,-0.001593,-0.000879,0.008363,-0.153285,-0.988146,0.001051,-0.005376,0.014285,19.990448,-21.214199,-51.559998,,,,,,,
1524434583.124902,0.008450,0.153848,2.066426,-0.001117,0.000532,0.000201,0.008350,-0.153242,-0.988153,0.000347,-0.001909,0.019678,19.056229,-21.981075,-51.764893,,,,,,,
,,,,,,,,,,,,,,,,42.293388,-71.264268,59.832619,-1.000000,-1.000000,1524434583.114455,
,,,,,,,,,,,,,,,,42.293388,-71.264268,59.832619,-1.000000,-1.000000,1524434583.117720,
1524434583.144921,0.008421,0.153872,2.066446,0.004208,-0.003718,0.001302,0.008321,-0.153266,-0.988150,0.001460,-0.000116,0.020025,17.835556,-20.775448,-50.510315,,,,,,,
1524434583.164941,0.008443,0.153929,2.066440,0.001030,0.002656,-0.000852,0.008343,-0.153322,-0.988141,0.000401,-0.004362,0.015088,18.205093,-19.922787,-49.758118,,,,,,,
1524434583.184960,0.008449,0.153907,2.066433,-0.005388,-0.000531,0.000171,0.008349,-0.153300,-0.988144,0.001920,-0.004704,0.015717,18.682175,-19.627384,-49.148376,,,,,,,
1524434583.204980,0.008432,0.153840,2.066443,-0.002197,-0.002654,0.001258,0.008332,-0.153234,-0.988155,0.000350,-0.004755,0.014964,19.219711,-19.415836,-48.811584,,,,,,,
1524434583.224999,0.008437,0.153837,2.066447,0.001028,0.000532,-0.000853,0.008337,-0.153231,-0.988155,0.001322,-0.002760,0.019329,19.584320,-19.710926,-49.040833,,,,,,,
1524434583.245019,0.008452,0.153846,2.066451,-0.000058,0.001597,0.001271,0.008352,-0.153239,-0.988154,0.000803,-0.003560,0.016611,20.166855,-19.204548,-49.697449,,,,,,,
1524434583.265069,0.008443,0.153866,2.066439,-0.001116,0.001595,0.000198,0.008344,-0.153259,-0.988151,0.002917,-0.004791,0.016013,20.705597,-19.607895,-50.974548,,,,,,,
1524434583.285089,0.008419,0.153843,2.066427,-0.000052,-0.002656,0.000206,0.008319,-0.153237,-0.988154,-0.000156,-0.003791,0.016337,20.648529,-20.446766,-51.700684,,,,,,,
1524434583.305092,0.008424,0.153824,2.066426,-0.001098,0.000531,-0.001934,0.008325,-0.153218,-0.988157,0.000129,-0.001338,0.018339,20.282196,-21.420170,-51.454468,,,,,,,
1524434583.325112,0.008446,0.153875,2.066425,0.002089,0.002656,0.000220,0.008346,-0.153268,-0.988149,0.001481,-0.002860,0.018713,18.828339,-21.553387,-51.323486,,,,,,,
1524434583.345131,0.008435,0.153911,2.066429,0.003152,-0.001594,0.000227,0.008335,-0.153304,-0.988144,0.001476,-0.004640,0.015045,18.100433,-19.926109,-50.067810,,,,,,,
1524434583.365151,0.008442,0.153904,2.066417,-0.004301,0.000531,-0.001955,0.008342,-0.153297,-0.988145,0.001729,-0.004830,0.015717,18.418121,-19.070377,-49.291931,,,,,,,
1524434583.385170,0.008444,0.153885,2.066400,-0.000030,0.000530,-0.001927,0.008344,-0.153279,-0.988148,0.002444,-0.002193,0.017597,18.659546,-18.684933,-48.808411,,,,,,,
1524434583.405190,0.008436,0.153888,2.066415,0.002086,0.000532,0.000220,0.008337,-0.153281,-0.988147,-0.000051,-0.000176,0.018116,19.368149,-18.618889,-48.843933,,,,,,,
1524434583.425209,0.008400,0.153897,2.066408,-0.001098,-0.000534,-0.001933,0.008301,-0.153290,-0.988146,-0.000412,-0.004898,0.015963,19.616776,-18.903645,-49.002747,,,,,,,
1524434583.445259,0.008416,0.153863,2.066413,-0.004329,0.000534,0.001242,0.008316,-0.153257,-0.988151,0.001739,-0.004931,0.015342,20.442139,-18.763382,-49.994568,,,,,,,
1524434583.465279,0.008368,0.153840,2.066417,-0.000071,-0.001586,0.002336,0.008269,-0.153234,-0.988155,0.000520,-0.002864,0.016292,20.781296,-19.733540,-51.138000,,,,,,,
1524434583.485298,0.008382,0.153853,2.066432,0.002086,0.000534,0.000219,0.008282,-0.153247,-0.988153,0.001483,-0.002744,0.017969,20.379257,-20.743023,-51.843872,,,,,,,
1524434583.505318,0.008379,0.153872,2.066414,-0.001109,-0.001594,-0.000868,0.008280,-0.153266,-0.988150,-0.000177,-0.001458,0.019156,20.007584,-21.564487,-52.713501,,,,,,,
1524434583.525337,0.008393,0.153918,2.066429,0.003152,-0.001592,0.000226,0.008294,-0.153311,-0.988143,0.001914,-0.004205,0.016250,18.075912,-21.847355,-51.988037,,,,,,,
1524434583.545357,0.008404,0.153890,2.066428,-0.003247,0.004780,0.000183,0.008304,-0.153283,-0.988147,0.000714,-0.004295,0.015201,18.066559,-20.404129,-50.936157,,,,,,,
1524434583.565377,0.008375,0.153860,2.066443,-0.001130,-0.002648,0.001263,0.008276,-0.153254,-0.988152,0.001077,-0.003012,0.017205,18.491135,-20.060806,-50.041504,,,,,,,
1524434583.585396,0.008385,0.153846,2.066452,-0.000078,-0.000523,0.003402,0.008285,-0.153240,-0.988154,0.001587,-0.002003,0.018656,18.895706,-19.538578,-49.288391,,,,,,,
1524434583.605416,0.008389,0.153871,2.066461,0.001027,-0.000522,-0.000855,0.008290,-0.153265,-0.988150,0.000316,-0.000345,0.018546,19.182953,-19.632374,-49.023254,,,,,,,
1524434583.625435,0.008378,0.153848,2.066465,-0.004320,-0.000522,0.000175,0.008279,-0.153242,-0.988154,0.000632,-0.002169,0.016230,19.379410,-19.608849,-49.385986,,,,,,,
,,,,,,,,,,,,,,,,42.293395,-71.264234,61.162575,-1.000000,-1.000000,1524434583.602392,
1524434583.645485,0.008345,0.153798,2.066475,-0.002192,-0.002641,0.001253,0.008246,-0.153192,-0.988162,-0.000357,-0.003866,0.017428,20.186737,-19.535309,-50.225769,,,,,,,
1524434583.665504,0.008302,0.153763,2.066479,-0.002166,-0.000513,-0.000880,0.008204,-0.153158,-0.988168,0.000295,-0.001246,0.019433,20.417343,-20.150627,-51.101929,,,,,,,
1524434583.685524,0.008315,0.153776,2.066472,-0.000034,-0.000510,0.000199,0.008216,-0.153171,-0.988165,0.001427,-0.003171,0.018607,20.422241,-21.151127,-51.528687,,,,,,,
1524434583.705544,0.008320,0.153828,2.066476,0.005320,0.000556,-0.000832,0.008221,-0.153222,-0.988157,-0.000287,-0.003836,0.016432,19.468430,-22.081188,-51.574707,,,,,,,
1524434583.725563,0.008323,0.153833,2.066459,-0.002132,0.001620,-0.003015,0.008225,-0.153227,-0.988157,0.001190,-0.003557,0.016050,17.771164,-21.903427,-50.798340,,,,,,,
1524434583.745583,0.008311,0.153825,2.066473,-0.000039,-0.003683,0.001262,0.008213,-0.153219,-0.988158,0.000820,-0.004008,0.016402,17.901871,-19.886139,-49.641052,,,,,,,
1524434583.765602,0.008306,0.153823,2.066477,0.002115,0.001629,0.000210,0.008208,-0.153217,-0.988158,0.000444,-0.002835,0.017516,18.242401,-19.114220,-49.018921,,,,,,,
1524434583.785622,0.008315,0.153821,2.066492,-0.002154,0.000573,0.000180,0.008217,-0.153215,-0.988159,0.001015,-0.005095,0.017761,18.501450,-18.497337,-48.385925,,,,,,,
1524434583.805640,0.008307,0.153803,2.066485,-0.001085,-0.000489,0.000187,0.008209,-0.153198,-0.988161,0.001969,-0.004243,0.017718,19.328262,-19.132298,-48.535767,,,,,,,
1524434583.825691,0.008287,0.153808,2.066484,0.001039,-0.004734,0.001267,0.008189,-0.153202,-0.988161,0.000356,-0.003185,0.017244,19.338547,-19.023472,-48.852966,,,,,,,
1524434583.845711,0.008284,0.153779,2.066477,-0.002140,-0.001547,-0.000887,0.008186,-0.153174,-0.988165,0.001106,-0.002115,0.019080,20.230270,-19.118896,-49.797913,,,,,,,
1524434583.865731,0.008308,0.153762,2.066465,-0.000007,0.002708,0.000192,0.008210,-0.153157,-0.988168,0.000350,-0.001765,0.018762,20.474411,-19.855186,-50.858948,,,,,,,
1524434583.885750,0.008309,0.153793,2.066468,0.002129,0.000584,0.000207,0.008211,-0.153187,-0.988163,-0.000123,-0.003078,0.017887,20.011093,-20.593231,-51.457031,,,,,,,
1524434583.905770,0.008309,0.153824,2.066440,0.001080,-0.000475,-0.001933,0.008210,-0.153218,-0.988158,0.001082,-0.003184,0.018447,19.539780,-21.759384,-51.805847,,,,,,,
1524434583.925789,0.008305,0.153828,2.066438,-0.000006,-0.000470,0.000191,0.008207,-0.153222,-0.988158,0.001772,-0.002921,0.015471,17.895279,-20.918968,-50.943298,,,,,,,
1524434583.945809,0.008295,0.153810,2.066442,0.001074,-0.000469,-0.000867,0.008197,-0.153204,-0.988160,0.000409,-0.003702,0.017488,18.209305,-20.065281,-49.970032,,,,,,,
1524434583.965827,0.008257,0.153781,2.066451,-0.003203,-0.001527,0.000170,0.008160,-0.153176,-0.988165,0.000324,-0.002860,0.018011,18.482117,-19.379822,-49.170593,,,,,,,
1524434583.985847,0.008255,0.153796,2.066444,0.000004,-0.000460,0.000191,0.008158,-0.153190,-0.988163,0.000906,-0.003167,0.017017,18.951965,-19.312534,-48.534851,,,,,,,
1524434584.005898,0.008251,0.153800,2.066448,0.001065,-0.001519,0.001264,0.008154,-0.153194,-0.988162,-0.000311,-0.005421,0.016605,19.578323,-19.618382,-48.903442,,,,,,,
1524434584.025917,0.008245,0.153778,2.066431,-0.002112,0.002734,-0.000890,0.008147,-0.153172,-0.988166,0.001710,-0.004039,0.016745,19.793335,-19.106472,-49.299927,,,,,,,
1524434584.045937,0.008227,0.153761,2.066418,-0.001044,-0.001512,-0.000882,0.008130,-0.153155,-0.988169,0.001483,-0.002759,0.016916,20.556854,-19.514816,-50.259216,,,,,,,
1524434584.065956,0.008219,0.153765,2.066417,0.002143,-0.001505,0.001271,0.008122,-0.153160,-0.988168,0.001324,-0.001900,0.019036,20.775986,-20.253742,-51.275696,,,,,,,
1524434584.085976,0.008227,0.153786,2.066410,-0.001036,0.000621,-0.000882,0.008130,-0.153181,-0.988165,0.001087,-0.001925,0.017828,20.539719,-20.990814,-51.994629,,,,,,,
1524434584.105994,0.008223,0.153812,2.066413,0.002160,0.000626,0.000206,0.008126,-0.153206,-0.988161,0.002143,-0.003486,0.016710,19.561935,-21.928421,-51.558899,,,,,,,
1524434584.126014,0.008211,0.153822,2.066433,0.002153,-0.001498,0.001273,0.008114,-0.153216,-0.988159,0.001056,-0.003949,0.016281,18.076843,-20.822815,-50.373230,,,,,,,
1524434584.146034,0.008225,0.153799,2.066426,-0.004239,0.000633,0.000165,0.008128,-0.153194,-0.988163,0.001500,-0.002721,0.018268,18.309341,-19.427105,-49.424377,,,,,,,
1524434584.166054,0.008227,0.153793,2.066430,0.001102,-0.000427,0.000201,0.008130,-0.153187,-0.988164,0.000705,-0.001705,0.017216,18.651031,-18.628967,-48.719238,,,,,,,
1524434584.186074,0.008237,0.153824,2.066445,0.004310,0.001702,0.000223,0.008140,-0.153218,-0.988159,0.000283,-0.001643,0.018188,19.094940,-18.438389,-48.236084,,,,,,,
1524434584.206124,0.008249,0.153798,2.066449,-0.004220,-0.000424,-0.000899,0.008152,-0.153192,-0.988163,0.001324,-0.005255,0.017917,19.618423,-18.934914,-48.877502,,,,,,,
1524434584.226143,0.008257,0.153787,2.066453,-0.001026,-0.001478,0.000189,0.008159,-0.153181,-0.988164,0.000721,-0.005007,0.017614,20.207993,-18.489723,-49.345215,,,,,,,
1524434584.246163,0.008243,0.153770,2.066457,-0.001022,-0.001478,0.000190,0.008145,-0.153165,-0.988167,0.000995,-0.001330,0.019127,20.833771,-19.372211,-50.487244,,,,,,,
1524434584.266181,0.008242,0.153764,2.066472,-0.002093,0.002774,0.001250,0.008145,-0.153159,-0.988168,0.001575,-0.001962,0.019570,20.857590,-20.097195,-51.562683,,,,,,,
1524434584.286201,0.008223,0.153780,2.066476,0.002174,-0.002536,0.001279,0.008126,-0.153175,-0.988165,0.001472,-0.003289,0.017768,20.308121,-20.880821,-52.092773,,,,,,,
1524434584.306215,0.008226,0.153812,2.066474,0.003242,-0.003597,0.001288,0.008129,-0.153207,-0.988161,0.001423,-0.004096,0.018159,19.033615,-21.817303,-52.114136,,,,,,,
1524434584.326235,0.008247,0.153785,2.066462,-0.003136,0.002776,-0.000886,0.008149,-0.153180,-0.988165,0.002532,-0.004718,0.017202,18.138351,-20.830429,-50.894592,,,,,,,
1524434584.346254,0.008241,0.153768,2.066450,0.000068,0.000652,-0.000863,0.008143,-0.153163,-0.988167,0.002629,-0.002736,0.017769,18.436569,-20.033867,-49.891663,,,,,,,
1524434584.366274,0.008210,0.153784,2.066459,0.002183,-0.002532,0.001284,0.008113,-0.153179,-0.988165,0.000783,-0.003285,0.018225,18.976898,-19.742382,-49.185852,,,,,,,
1524434584.386324,0.008223,0.153779,2.066458,-0.002073,-0.000408,0.000191,0.008126,-0.153174,-0.988166,0.000342,-0.002039,0.018943,19.463959,-19.716606,-49.247314,,,,,,,
1524434584.406343,0.008234,0.153774,2.066440,-0.000993,0.000656,-0.000866,0.008137,-0.153169,-0.988166,0.001613,-0.003646,0.017158,19.625275,-19.844219,-49.445374,,,,,,,
1524434584.426363,0.008225,0.153748,2.066450,-0.001008,0.001723,0.001267,0.008128,-0.153143,-0.988171,0.001256,-0.003931,0.017330,20.108383,-19.569851,-50.053650,,,,,,,
1524434584.446383,0.008218,0.153732,2.066443,-0.000989,-0.000401,-0.000863,0.008121,-0.153127,-0.988173,0.000180,-0.001765,0.019087,20.854202,-20.036118,-51.213623,,,,,,,
1524434584.466402,0.008222,0.153759,2.066437,0.002206,-0.001464,0.000226,0.008124,-0.153154,-0.988169,0.001077,-0.002745,0.019129,20.727798,-20.735886,-52.136108,,,,,,,
1524434584.486422,0.008224,0.153802,2.066441,0.003277,0.000665,0.000234,0.008126,-0.153196,-0.988162,-0.000650,-0.002856,0.018207,19.795700,-21.778328,-52.031311,,,,,,,
1524434584.506441,0.008216,0.153803,2.066440,-0.002048,0.001727,-0.000867,0.008119,-0.153197,-0.988162,0.000960,-0.004823,0.017062,18.461533,-21.906456,-51.200623,,,,,,,
1524434584.526461,0.008218,0.153807,2.066444,0.000080,0.001731,0.000214,0.008121,-0.153201,-0.988162,0.000439,-0.003217,0.016619,17.911606,-20.231419,-49.881592,,,,,,,
1524434584.546480,0.008209,0.153807,2.066454,0.002213,-0.003578,0.000228,0.008112,-0.153201,-0.988162,0.000998,-0.003674,0.017931,18.052200,-19.319736,-49.068237,,,,,,,
1524434584.566530,0.008198,0.153834,2.066442,0.002225,-0.003576,-0.000837,0.008101,-0.153228,-0.988157,0.001238,-0.004624,0.020170,18.302475,-18.714214,-48.435181,,,,,,,
1524434584.586550,0.008075,0.153968,2.066398,0.011844,-0.013137,-0.002903,0.007979,-0.153360,-0.988138,0.007554,-0.009085,0.026682,18.769608,-19.191280,-48.344055,,,,,,,
1524434584.606569,0.006944,0.155041,2.066023,0.083524,-0.087532,-0.026934,0.006861,-0.154421,-0.987981,0.062109,-0.061125,0.099813,19.057495,-18.852856,-48.559021,,,,,,,
,,,,,,,,,,,,,,,,42.293395,-71.264234,61.271029,-1.000000,-1.000000,1524434584.590331,
1524434584.626589,0.005386,0.156631,2.065909,0.058742,-0.072625,-0.000455,0.005320,-0.155991,-0.987744,-0.005289,-0.119155,0.022046,19.802094,-18.661987,-49.454773,,,,,,,
1524434584.646608,0.003450,0.156582,2.065671,-0.027638,-0.106640,-0.015959,0.003408,-0.155943,-0.987760,0.013011,-0.112383,-0.080920,19.773193,-19.231976,-50.532166,,,,,,,
1524434584.666628,0.001769,0.155741,2.065346,-0.051100,-0.070519,-0.015051,0.001748,-0.155113,-0.987895,0.006309,-0.137963,-0.013967,20.275269,-20.003654,-51.247070,,,,,,,
1524434584.686647,0.000359,0.154506,2.065010,-0.067125,-0.090706,-0.016224,0.000354,-0.153892,-0.988088,0.007962,-0.079324,0.002583,19.039139,-21.193817,-51.651917,,,,,,,
1524434584.706667,-0.001821,0.153167,2.064701,-0.072522,-0.120446,-0.013063,-0.001800,-0.152569,-0.988291,0.015731,-0.030674,0.032908,17.908859,-21.371132,-51.163391,,,,,,,
1524434584.726686,-0.004056,0.151796,2.064189,-0.075482,-0.116228,-0.039730,-0.004009,-0.151214,-0.988493,0.022106,-0.022248,0.032850,18.048752,-19.857433,-50.008606,,,,,,,
1524434584.746706,-0.006234,0.149450,2.063230,-0.155547,-0.116229,-0.041335,-0.006164,-0.148895,-0.988834,-0.012528,0.011322,-0.051678,17.658951,-19.689465,-49.053589,,,,,,,
1524434584.766756,-0.008289,0.146842,2.062570,-0.090577,-0.091771,-0.020646,-0.008199,-0.146315,-0.989204,-0.016062,-0.004183,0.067726,18.134827,-19.097012,-48.395691,,,,,,,
1524434584.786776,-0.009710,0.146877,2.062525,0.026717,-0.068378,-0.000670,-0.009605,-0.146349,-0.989186,-0.014794,-0.003049,0.091267,18.393494,-18.894821,-48.481812,,,,,,,
1524434584.806795,-0.011168,0.146926,2.062760,-0.004504,-0.049215,0.030029,-0.011047,-0.146398,-0.989164,-0.022827,0.014226,-0.077609,18.672562,-18.884827,-48.912292,,,,,,,
1524434584.826815,-0.011537,0.147546,2.063713,0.041386,-0.010962,0.036733,-0.011411,-0.147012,-0.989069,-0.026736,-0.001563,0.078241,19.371338,-19.028126,-49.903259,,,,,,,
1524434584.846834,-0.013747,0.146527,2.063144,-0.123307,-0.174697,-0.070961,-0.013600,-0.146003,-0.989190,0.123310,0.010505,-0.152136,20.022171,-19.573971,-50.771545,,,,,,,
1524434584.866854,-0.016122,0.144365,2.061796,-0.045491,-0.049306,-0.042726,-0.015953,-0.143864,-0.989469,-0.047920,0.028645,0.089368,19.843536,-20.233524,-51.386780,,,,,,,
1524434584.886873,-0.015909,0.144540,2.061826,0.007397,0.002827,0.018384,-0.015743,-0.144037,-0.989447,-0.063359,-0.003927,0.000433,18.204346,-21.583778,-51.191711,,,,,,,
1524434584.906893,-0.016102,0.145917,2.062774,0.145836,0.018812,0.060885,-0.015930,-0.145400,-0.989245,-0.035324,-0.016007,0.120302,16.892395,-20.549042,-50.410217,,,,,,,
1524434584.926912,-0.017276,0.149563,2.063913,0.174690,-0.106566,0.044026,-0.017083,-0.149006,-0.988689,0.081307,-0.039867,0.044566,17.347214,-19.127422,-49.427002,,,,,,,
1524434584.946962,-0.019287,0.153574,2.065393,0.229856,-0.065078,0.088098,-0.019059,-0.152971,-0.988047,-0.037475,0.004625,0.057856,17.712784,-18.999928,-48.231445,,,,,,,
1524434584.966982,-0.021792,0.158531,2.066878,0.254749,-0.132063,0.043500,-0.021517,-0.157867,-0.987226,0.055346,0.020264,0.100522,17.996353,-18.857040,-47.776550,,,,,,,
1524434584.987001,-0.023865,0.163360,2.067715,0.213304,-0.072592,0.028299,-0.023545,-0.162634,-0.986405,-0.029449,0.048346,0.043488,18.540558,-19.002888,-47.844482,,,,,,,
1524434585.007021,-0.024791,0.165618,2.068129,0.053291,-0.022672,0.017627,-0.024450,-0.164861,-0.986013,-0.028681,-0.007761,-0.080606,18.782974,-19.328205,-48.136108,,,,,,,
1524434585.027040,-0.024967,0.165084,2.067959,-0.062705,0.001712,-0.022591,-0.024625,-0.164335,-0.986097,0.003796,-0.039431,-0.093294,19.677582,-19.819847,-49.333557,,,,,,,
1524434585.047060,-0.024016,0.164288,2.067769,-0.014851,0.059108,0.005444,-0.023691,-0.163550,-0.986250,-0.050772,-0.013833,0.097334,19.763733,-20.903091,-50.315674,,,,,,,
1524434585.067080,-0.023333,0.164558,2.067453,0.037813,0.015503,-0.037902,-0.023016,-0.163816,-0.986222,0.055136,0.022260,0.081498,19.332825,-21.707458,-50.961609,,,,,,,
1524434585.087099,-0.022496,0.166315,2.066121,0.099042,0.042012,-0.075861,-0.022184,-0.165549,-0.985952,0.018705,0.063025,0.090963,18.534866,-23.134331,-51.396973,,,,,,,
1524434585.107119,-0.021081,0.168027,2.064720,0.070178,0.072832,-0.068595,-0.020783,-0.167237,-0.985697,-0.020507,0.027314,0.001734,17.141068,-22.335979,-50.390625,,,,,,,
1524434585.127138,-0.019195,0.169107,2.062997,0.030883,0.080240,-0.091242,-0.018920,-0.168302,-0.985554,0.006682,-0.014239,-0.028973,17.369461,-21.677650,-49.313721,,,,,,,
1524434585.147188,-0.017187,0.169087,2.061584,-0.015366,0.095160,-0.052117,-0.016941,-0.168283,-0.985593,-0.036129,-0.023871,-0.033008,18.653229,-21.040268,-48.698242,,,,,,,
1524434585.167208,-0.015189,0.168960,2.060673,0.003794,0.076046,-0.047724,-0.014972,-0.168158,-0.985646,0.007373,-0.018717,0.035619,18.895920,-20.757423,-48.311646,,,,,,,
1524434585.187227,-0.014099,0.169566,2.059512,0.047640,0.032474,-0.060219,-0.013896,-0.168755,-0.985560,0.031383,0.009972,0.029429,19.521896,-21.182301,-48.364014,,,,,,,
1524434585.207247,-0.013239,0.170772,2.059108,0.065162,0.046370,0.011312,-0.013046,-0.169943,-0.985367,-0.033218,0.003943,0.012146,19.980453,-20.855381,-49.020752,,,,,,,
1524434585.227266,-0.012516,0.172255,2.059961,0.080858,0.044292,0.046591,-0.012330,-0.171404,-0.985123,-0.000991,-0.029722,0.024003,20.634384,-21.502102,-50.031616,,,,,,,
1524434585.247286,-0.012256,0.173701,2.060845,0.058472,0.011347,0.038980,-0.012072,-0.172829,-0.984878,0.025087,-0.040428,0.002334,21.154251,-22.141846,-50.525146,,,,,,,
1524434585.267305,-0.011875,0.174097,2.061217,0.000033,0.035749,0.009807,-0.011695,-0.173219,-0.984814,-0.005151,-0.023604,-0.005161,20.515350,-23.049557,-50.900269,,,,,,,
1524434585.287325,-0.010606,0.173771,2.061688,-0.018285,0.078270,0.033133,-0.010446,-0.172898,-0.984884,-0.047033,-0.024170,0.017187,19.255112,-23.796913,-51.031738,,,,,,,
1524434585.307349,-0.009552,0.173634,2.061931,-0.002956,0.038905,-0.013662,-0.009409,-0.172763,-0.984918,0.031915,0.001788,0.009393,17.601379,-22.247543,-49.704895,,,,,,,
1524434585.327399,-0.008595,0.173731,2.061176,0.007990,0.049493,-0.042367,-0.008465,-0.172859,-0.984910,0.002362,0.027641,0.031144,18.366379,-21.080181,-48.573486,,,,,,,
1524434585.347419,-0.007202,0.174259,2.060597,0.038785,0.073956,-0.020843,-0.007093,-0.173378,-0.984830,-0.022067,0.012077,0.022763,19.114471,-20.481590,-47.645935,,,,,,,
1524434585.367439,-0.005999,0.175197,2.060152,0.046349,0.049505,-0.033582,-0.005907,-0.174302,-0.984674,0.030443,0.011735,0.003626,19.656860,-21.181198,-47.866211,,,,,,,
1524434585.387458,-0.004754,0.176017,2.059532,0.037700,0.066520,-0.019784,-0.004681,-0.175109,-0.984538,-0.006550,-0.009324,0.038386,20.328003,-20.515865,-48.797546,,,,,,,
1524434585.407478,-0.003442,0.176493,2.059464,0.019323,0.050615,0.003541,-0.003388,-0.175578,-0.984459,-0.011245,-0.011220,0.011422,20.794830,-21.510880,-49.684509,,,,,,,
1524434585.427497,-0.002871,0.176721,2.059073,0.012154,0.010197,-0.034877,-0.002826,-0.175802,-0.984421,0.042621,0.018774,-0.011428,21.031601,-22.778999,-50.483093,,,,,,,
1524434585.447517,-0.002589,0.177149,2.058164,0.030258,0.012330,-0.029426,-0.002548,-0.176224,-0.984347,-0.010239,0.018799,0.028322,20.827484,-23.289989,-50.991943,,,,,,,
1524434585.467536,-0.001784,0.178260,2.058253,0.075758,0.043197,0.019910,-0.001756,-0.177317,-0.984152,-0.028533,0.002879,0.052008,19.871918,-24.118320,-51.021362,,,,,,,
1524434585.487556,-0.001302,0.179926,2.058539,0.080076,0.014504,0.011412,-0.001281,-0.178956,-0.983856,0.025085,-0.015441,0.020813,19.139786,-22.753540,-49.595154,,,,,,,
1524434585.507575,-0.001266,0.180725,2.058456,0.007643,-0.000396,-0.009327,-0.001246,-0.179743,-0.983713,0.028116,-0.013540,-0.033866,19.188583,-22.143875,-49.049438,,,,,,,
1524434585.527625,-0.000705,0.180206,2.058758,-0.026834,0.052774,0.030943,-0.000694,-0.179232,-0.983806,-0.053292,-0.029096,0.009060,19.396149,-21.715370,-48.116943,,,,,,,
1524434585.547645,0.000513,0.180073,2.059378,0.005261,0.069764,0.025830,0.000505,-0.179102,-0.983830,-0.013246,-0.020819,0.049504,20.621124,-21.358974,-48.141663,,,,,,,
1524434585.567664,0.001620,0.180341,2.059654,0.009729,0.054860,0.002411,0.001594,-0.179365,-0.983781,0.013710,-0.012652,0.015062,20.275452,-21.716187,-48.379578,,,,,,,
1524434585.587684,0.002816,0.180071,2.059406,-0.018984,0.063345,-0.009507,0.002770,-0.179099,-0.983827,0.004020,0.001411,-0.015883,21.266144,-21.274113,-49.362366,,,,,,,
1524434585.607703,0.004311,0.180025,2.059663,0.012753,0.087824,0.025880,0.004241,-0.179054,-0.983830,-0.022155,-0.015556,0.047978,22.380066,-22.060452,-49.981812,,,,,,,
1524434585.627723,0.005786,0.180342,2.059970,0.010776,0.063364,0.005616,0.005692,-0.179366,-0.983766,0.023894,0.003249,0.015901,21.615738,-22.859394,-51.024414,,,,,,,
1524434585.647742,0.007094,0.180359,2.060072,-0.000999,0.070804,0.009800,0.006979,-0.179383,-0.983754,-0.000372,0.011917,0.006200,20.981155,-23.733097,-51.452576,,,,,,,
1524434585.667762,0.008558,0.180385,2.060168,-0.004060,0.070789,-0.006209,0.008419,-0.179408,-0.983738,0.007648,0.021877,0.012013,20.135742,-24.410595,-50.257812,,,,,,,
1524434585.687782,0.009842,0.180370,2.059828,0.002449,0.066521,-0.017889,0.009682,-0.179394,-0.983730,-0.006279,0.017849,0.018001,19.407166,-22.575787,-49.343323,,,,,,,
1524434585.707801,0.011594,0.180732,2.059603,0.026960,0.088840,-0.010263,0.011405,-0.179750,-0.983646,-0.021399,0.003709,0.030063,20.115250,-21.471024,-48.512878,,,,,,,
1524434585.727851,0.013268,0.181513,2.059358,0.050444,0.075030,-0.011171,0.013050,-0.180518,-0.983485,0.018765,-0.004800,0.020442,20.843262,-21.391144,-47.754333,,,,,,,
1524434585.747871,0.014674,0.182695,2.059289,0.054588,0.072923,0.002713,0.014429,-0.181681,-0.983252,0.005895,-0.030859,0.037359,21.056000,-21.483047,-47.656616,,,,,,,
1524434585.767890,0.016337,0.183016,2.059665,-0.010738,0.085699,0.025722,0.016064,-0.181996,-0.983168,-0.019039,-0.042079,-0.010271,21.580734,-21.343231,-48.341736,,,,,,,
1524434585.787910,0.017640,0.181568,2.059937,-0.100273,0.051679,0.004868,0.017349,-0.180572,-0.983408,0.024201,-0.015793,-0.054861,22.476685,-21.243961,-49.115967,,,,,,,
1524434585.807929,0.018703,0.179926,2.059970,-0.056444,0.067608,0.000899,0.018400,-0.178957,-0.983685,-0.005415,-0.005354,0.060665,22.989304,-22.109119,-50.273682,,,,,,,
1524434585.827949,0.020960,0.178727,2.060267,-0.090679,0.143058,0.016656,0.020625,-0.177777,-0.983855,-0.048518,-0.001056,-0.033220,22.446060,-23.004864,-51.246887,,,,,,,
1524434585.847968,0.023216,0.177617,2.060357,-0.002980,0.082473,-0.006202,0.022849,-0.176685,-0.984002,0.027887,0.052493,0.069238,21.975098,-24.000198,-51.671082,,,,,,,
1524434585.867988,0.024755,0.178832,2.060182,0.077028,0.082482,0.001798,0.024358,-0.177880,-0.983750,0.012522,0.021630,0.077668,20.487823,-24.194229,-50.705872,,,,,,,
1524434585.888007,0.026012,0.180393,2.060450,0.087519,0.041070,0.017857,0.025587,-0.179416,-0.983440,0.008898,-0.016934,0.037411,20.644730,-23.088436,-49.805603,,,,,,,
1524434585.908057,0.026112,0.181774,2.060464,0.043912,-0.012077,-0.006951,0.025678,-0.180775,-0.983189,0.048815,-0.003597,-0.018306,21.297302,-22.525280,-48.847473,,,,,,,
1524434585.928077,0.025557,0.182692,2.060292,0.073717,-0.034377,0.000711,0.025129,-0.181678,-0.983037,0.007784,0.001716,0.045384,22.002350,-22.060562,-48.244873,,,,,,,
1524434585.948096,0.025272,0.185193,2.060626,0.157843,0.004967,0.030055,0.024837,-0.184136,-0.982587,-0.026073,0.030160,0.092511,22.198624,-22.881458,-48.584045,,,,,,,
1524434585.968116,0.025586,0.188667,2.061042,0.167541,0.016638,0.021594,0.025129,-0.187549,-0.981933,-0.009000,0.011387,-0.000015,21.782288,-22.751698,-48.890747,,,,,,,
1524434585.988136,0.025384,0.191500,2.061218,0.131281,-0.019490,0.012823,0.024917,-0.190332,-0.981403,0.017716,0.024454,-0.027081,22.509995,-22.984100,-49.834106,,,,,,,
1524434586.008155,0.024545,0.194031,2.061842,0.128823,-0.043881,0.045848,0.024082,-0.192816,-0.980939,-0.005314,0.004416,0.053891,23.384918,-23.781372,-50.893311,,,,,,,
1524434586.028175,0.023282,0.196457,2.063115,0.101830,-0.057649,0.077642,0.022832,-0.195196,-0.980498,0.003169,-0.015940,0.021316,22.550842,-24.327618,-51.440857,,,,,,,
1524434586.048194,0.021342,0.198040,2.064971,0.067449,-0.091620,0.097662,0.020923,-0.196748,-0.980230,0.009426,-0.003355,-0.018946,22.071686,-25.271194,-51.738525,,,,,,,
1524434586.068214,0.019249,0.199564,2.066917,0.081322,-0.069307,0.100953,0.018866,-0.198242,-0.979971,-0.009100,0.007690,0.033530,19.937531,-24.791447,-50.839111,,,,,,,
1524434586.088233,0.018257,0.201332,2.069190,0.086600,-0.015113,0.113779,0.017887,-0.199975,-0.979637,-0.037770,0.008965,0.014458,20.150818,-23.399551,-49.576233,,,,,,,
1524434586.108283,0.017338,0.202969,2.070872,0.077432,-0.043862,0.061490,0.016981,-0.201578,-0.979325,0.029253,0.008997,-0.013305,20.386536,-22.885288,-48.577820,,,,,,,
1524434586.128303,0.016102,0.204411,2.071662,0.063768,-0.048141,0.036883,0.015766,-0.202991,-0.979053,0.025402,-0.009808,-0.001064,20.737259,-22.072975,-47.669495,,,,,,,
1524434586.148322,0.015464,0.205613,2.072848,0.059249,-0.009858,0.068828,0.015138,-0.204167,-0.978819,-0.030015,-0.013423,0.014204,20.903870,-22.313110,-47.667358,,,,,,,
1524434586.168342,0.014952,0.206904,2.074169,0.066793,-0.015179,0.060352,0.014633,-0.205431,-0.978562,0.006851,-0.020689,0.032502,21.694077,-21.470207,-47.968323,,,,,,,
1524434586.188361,0.014312,0.208249,2.074963,0.072395,-0.030091,0.029480,0.014002,-0.206747,-0.978294,0.026434,-0.019312,0.021888,22.164886,-21.732410,-49.169128,,,,,,,
1524434586.208381,0.013679,0.209985,2.075507,0.099092,-0.024779,0.029660,0.013378,-0.208446,-0.977942,0.009068,-0.023915,0.028678,22.486862,-22.825439,-49.817017,,,,,,,
1524434586.228400,0.013092,0.212151,2.076295,0.113883,-0.017319,0.047879,0.012798,-0.210563,-0.977496,-0.014675,-0.010201,0.020023,21.544434,-22.982414,-50.459351,,,,,,,
1524434586.248420,0.012401,0.214650,2.077039,0.124746,-0.032219,0.025569,0.012116,-0.213005,-0.976976,0.028320,0.004082,0.023332,20.774658,-24.455746,-50.849121,,,,,,,
1524434586.268440,0.011604,0.216752,2.077346,0.092776,-0.030102,0.018958,0.011333,-0.215058,-0.976535,0.002797,-0.007552,0.015155,19.560150,-23.697998,-49.680176,,,,,,,
1524434586.288490,0.011297,0.218185,2.077780,0.056548,-0.015238,0.012319,0.011029,-0.216458,-0.976229,-0.011608,-0.006335,0.008135,19.740509,-22.844433,-48.757019,,,,,,,
1524434586.308499,0.010602,0.219333,2.077524,0.063242,-0.053528,-0.023875,0.010348,-0.217578,-0.975988,0.038282,-0.013272,0.020742,20.455780,-22.385601,-47.828125,,,,,,,
1524434586.328519,0.009460,0.220732,2.077292,0.071557,-0.058808,0.000696,0.009231,-0.218944,-0.975693,-0.002273,0.005870,0.009690,20.750977,-22.032764,-47.570068,,,,,,,
1524434586.348538,0.007934,0.222754,2.077504,0.132301,-0.084289,0.010697,0.007738,-0.220917,-0.975262,0.012007,0.034744,0.045620,21.192078,-23.012383,-47.610718,,,,,,,
1524434586.368558,0.006152,0.226171,2.077880,0.186633,-0.078963,0.024920,0.005995,-0.224247,-0.974513,-0.006544,0.031056,0.050228,21.022919,-22.557987,-48.199707,,,,,,,
1524434586.388577,0.004551,0.229745,2.078352,0.166425,-0.077911,0.016257,0.004431,-0.227729,-0.973714,0.012460,-0.004373,0.003087,21.892181,-23.001064,-49.344116,,,,,,,
1524434586.408597,0.002780,0.232087,2.078647,0.084149,-0.076838,0.023164,0.002706,-0.230009,-0.973184,-0.004155,-0.024370,-0.035071,22.342392,-23.533825,-50.238708,,,,,,,
1524434586.428616,0.001894,0.233138,2.079378,0.047757,-0.015203,0.039972,0.001843,-0.231031,-0.972944,-0.039197,-0.003069,-0.001757,21.183167,-24.275246,-50.809937,,,,,,,
1524434586.448636,0.001766,0.234645,2.079883,0.093940,-0.000366,0.011505,0.001717,-0.232497,-0.972595,0.003501,0.014587,0.061066,20.235397,-25.352131,-50.899719,,,,,,,
1524434586.468655,0.001456,0.236865,2.079778,0.105841,-0.017391,-0.007600,0.001415,-0.234656,-0.972077,0.010853,0.010230,0.013428,19.481644,-24.474812,-49.633484,,,,,,,
1524434586.488705,0.001151,0.238424,2.079861,0.065138,-0.014181,0.007047,0.001118,-0.236171,-0.971710,-0.014302,-0.001149,-0.029724,19.799362,-23.710155,-48.611694,,,,,,,
1524434586.508725,0.000779,0.240157,2.079918,0.104722,-0.019505,-0.002279,0.000756,-0.237855,-0.971300,0.018607,0.013139,0.062822,20.431671,-23.037540,-47.857422,,,,,,,
1524434586.528744,-0.000010,0.242550,2.079813,0.118636,-0.053512,-0.009645,-0.000010,-0.240179,-0.970728,0.022288,0.025106,0.017420,20.568680,-22.790405,-47.558899,,,,,,,
1524434586.548764,-0.001422,0.244676,2.079568,0.105827,-0.079011,-0.012929,-0.001380,-0.242242,-0.970215,0.008093,0.040444,-0.031006,20.751373,-23.373848,-47.347717,,,,,,,
1524434586.568784,-0.002855,0.247052,2.079122,0.124161,-0.075846,-0.033058,-0.002769,-0.244546,-0.969633,0.008903,0.038202,0.021559,21.598892,-22.910595,-47.357666,,,,,,,
1524434586.588803,-0.004052,0.249088,2.077969,0.079655,-0.075893,-0.070662,-0.003927,-0.246520,-0.969129,0.014929,-0.002000,0.013380,21.621231,-22.968189,-48.637939,,,,,,,
1524434586.608823,-0.005299,0.249974,2.075966,0.030844,-0.091874,-0.106164,-0.005134,-0.247379,-0.968905,0.027717,-0.007931,-0.014570,21.535614,-23.765266,-49.663635,,,,,,,
1524434586.628842,-0.006402,0.250894,2.073612,0.067268,-0.083391,-0.118709,-0.006202,-0.248270,-0.968670,0.007483,0.008021,0.050839,20.891357,-24.033630,-50.201965,,,,,,,
1524434586.648862,-0.007407,0.252355,2.071223,0.071461,-0.074882,-0.109088,-0.007172,-0.249685,-0.968300,0.000397,-0.019663,0.028786,19.777664,-24.919807,-50.202515,,,,,,,
1524434586.668881,-0.008020,0.253302,2.069261,0.036072,-0.038732,-0.088010,-0.007764,-0.250602,-0.968059,-0.024616,-0.036843,0.006816,18.896942,-23.798203,-48.727783,,,,,,,
1524434586.688931,-0.007670,0.254186,2.067647,0.053055,0.014405,-0.070842,-0.007423,-0.251458,-0.967839,-0.034569,-0.029701,0.048345,19.692245,-23.049652,-47.961426,,,,,,,
1524434586.708951,-0.006793,0.255508,2.066180,0.070130,0.026094,-0.068595,-0.006573,-0.252737,-0.967512,-0.009556,-0.022470,0.025114,19.996613,-23.162956,-47.603699,,,,,,,
1524434586.728970,-0.006167,0.256919,2.065232,0.073003,0.012326,-0.033402,-0.005964,-0.254101,-0.967159,-0.014132,0.006451,0.008449,19.916153,-23.195278,-47.313965,,,,,,,
1524434586.748990,-0.006302,0.258572,2.064710,0.091030,-0.023780,-0.023688,-0.006092,-0.255700,-0.966736,0.015690,0.018273,0.020844,20.184357,-23.449291,-47.531128,,,,,,,
1524434586.769009,-0.006777,0.260566,2.064028,0.096532,-0.033369,-0.042836,-0.006548,-0.257628,-0.966222,0.018252,0.003142,0.021657,21.772964,-23.523205,-48.189697,,,,,,,
1524434586.789029,-0.007313,0.262113,2.063091,0.065610,-0.040809,-0.048374,-0.007063,-0.259122,-0.965818,0.000029,-0.009234,-0.016375,21.856873,-23.922657,-49.339783,,,,,,,
1524434586.809048,-0.007951,0.263210,2.062053,0.054977,-0.045066,-0.053775,-0.007677,-0.260182,-0.965529,0.008364,-0.001583,0.011458,21.440964,-25.017040,-50.353088,,,,,,,
1524434586.829068,-0.008341,0.264514,2.061009,0.070932,-0.028057,-0.045141,-0.008051,-0.261440,-0.965186,-0.006750,0.010662,0.036414,21.239761,-25.942520,-50.751648,,,,,,,
1524434586.849087,-0.008807,0.265509,2.059905,0.033700,-0.045073,-0.062446,-0.008498,-0.262400,-0.964921,0.013992,0.017787,-0.024016,19.341522,-26.073792,-50.424133,,,,,,,
1524434586.869138,-0.009020,0.266310,2.058482,0.048748,-0.012153,-0.069805,-0.008701,-0.263174,-0.964709,-0.009472,0.033269,0.038195,18.756699,-25.034634,-49.018372,,,,,,,
1524434586.889157,-0.008447,0.267486,2.057034,0.056268,0.015467,-0.071887,-0.008146,-0.264308,-0.964404,-0.023531,0.012339,0.033678,19.547501,-24.422520,-48.081665,,,,,,,
1524434586.909177,-0.007882,0.268347,2.055364,0.041434,0.003763,-0.085842,-0.007600,-0.265138,-0.964180,-0.001464,-0.010634,0.003059,20.002579,-23.787327,-47.554810,,,,,,,
1524434586.929196,-0.007183,0.269362,2.053706,0.054162,0.015461,-0.075098,-0.006923,-0.266116,-0.963916,-0.005421,-0.012067,0.032199,20.342316,-24.031612,-47.071350,,,,,,,
1524434586.949216,-0.006721,0.270003,2.052060,0.022139,-0.005788,-0.078511,-0.006478,-0.266734,-0.963748,0.016869,0.002772,-0.018277,20.318085,-24.288368,-46.756714,,,,,,,
1524434586.969235,-0.006264,0.270902,2.050569,0.064810,0.006968,-0.072895,-0.006035,-0.267600,-0.963511,-0.007820,0.028373,0.046869,20.790802,-23.641655,-47.583069,,,,,,,
1524434586.989255,-0.005606,0.272614,2.048824,0.086305,0.003758,-0.088738,-0.005398,-0.269250,-0.963055,0.005048,-0.003928,0.033108,21.078461,-24.187843,-48.511963,,,,,,,
1524434587.009274,-0.004853,0.273844,2.047249,0.050865,0.027163,-0.063396,-0.004672,-0.270434,-0.962727,-0.026410,-0.034543,0.007389,21.596466,-24.544353,-49.312317,,,,,,,
1524434587.029294,-0.003397,0.275038,2.046363,0.064465,0.082449,-0.025999,-0.003269,-0.271584,-0.962409,-0.050442,-0.014900,0.048621,20.950775,-25.436302,-49.597534,,,,,,,
1524434587.049313,-0.001412,0.276144,2.046201,0.046077,0.095235,0.001589,-0.001359,-0.272648,-0.962112,-0.017898,-0.008984,-0.001709,19.309464,-25.677441,-49.156372,,,,,,,
1524434587.069363,0.000356,0.276932,2.046444,0.044871,0.089939,0.016503,0.000342,-0.273406,-0.961898,0.008233,0.018508,0.014450,18.994934,-24.363037,-47.979858,,,,,,,
1524434587.089383,0.002181,0.278014,2.046846,0.049115,0.101630,0.020795,0.002097,-0.274447,-0.961600,-0.004859,0.007998,0.023108,19.960754,-24.041775,-47.255920,,,,,,,
1524434587.109402,0.003691,0.278858,2.047199,0.048082,0.070815,0.013327,0.003549,-0.275258,-0.961363,0.013724,-0.011500,0.012434,19.782669,-23.846619,-46.397888,,,,,,,
1524434587.129422,0.004541,0.280364,2.047245,0.090913,0.031486,-0.004504,0.004363,-0.276705,-0.960944,0.032471,-0.017820,0.039314,20.504684,-24.501484,-46.590271,,,,,,,
1524434587.149441,0.004873,0.282405,2.046982,0.106994,0.002791,-0.015054,0.004680,-0.278666,-0.960376,0.022648,-0.038823,0.010379,21.464233,-24.096287,-46.756348,,,,,,,
1524434587.169461,0.004822,0.284484,2.046592,0.100633,-0.001469,-0.020426,0.004628,-0.280662,-0.959795,0.013118,-0.042763,0.012667,22.001633,-24.171253,-47.992310,,,,,,,
1524434587.189481,0.005317,0.286048,2.045887,0.055984,0.018693,-0.039912,0.005101,-0.282163,-0.959352,-0.007360,-0.039187,0.008593,21.820068,-25.099945,-49.067139,,,,,,,
1524434587.209500,0.005630,0.286306,2.044992,-0.005881,-0.017441,-0.050987,0.005401,-0.282410,-0.959278,0.009156,-0.022460,-0.025372,21.437302,-26.266891,-49.875977,,,,,,,
1524434587.229520,0.004966,0.286580,2.043488,0.036019,-0.071662,-0.085879,0.004764,-0.282673,-0.959204,0.052838,0.049931,0.040594,21.453384,-26.782661,-50.004883,,,,,,,
1524434587.249570,0.003850,0.288147,2.041171,0.089706,-0.104643,-0.122821,0.003691,-0.284176,-0.958764,0.035631,0.071331,0.020807,19.781525,-26.103741,-48.933411,,,,,,,
1524434587.269589,0.002559,0.289872,2.038717,0.077832,-0.080187,-0.105848,0.002452,-0.285830,-0.958277,-0.022731,0.049914,-0.002707,19.410355,-25.290741,-48.137207,,,,,,,
1524434587.289609,0.002111,0.290993,2.036939,0.026330,-0.028089,-0.072088,0.002022,-0.286904,-0.957957,-0.047508,0.016518,0.009989,20.128876,-24.865555,-47.104309,,,,,,,
1524434587.309633,0.002465,0.290911,2.035894,-0.012353,0.021881,-0.039307,0.002361,-0.286825,-0.957979,-0.044949,0.022085,0.021609,21.015442,-24.418903,-46.573914,,,,,,,
1524434587.329653,0.003049,0.290983,2.035274,0.022741,0.017653,-0.024149,0.002921,-0.286894,-0.957957,-0.005546,0.029066,0.023189,21.174316,-25.278873,-46.642944,,,,,,,
1524434587.349672,0.003411,0.292210,2.034787,0.081433,0.008095,-0.021622,0.003266,-0.288069,-0.957604,0.010604,0.027617,0.036308,21.577850,-24.312786,-47.245117,,,,,,,
1524434587.369691,0.003809,0.293904,2.034356,0.073954,0.030405,-0.018474,0.003646,-0.289691,-0.957113,-0.003020,-0.011303,0.023916,22.528900,-24.620399,-47.524963,,,,,,,
1524434587.389710,0.004723,0.295181,2.034040,0.066453,0.042097,-0.014262,0.004519,-0.290913,-0.956738,-0.022967,-0.018520,0.031857,22.379395,-25.384701,-48.690308,,,,,,,
1524434587.409730,0.005496,0.296992,2.033714,0.112367,0.027222,-0.016084,0.005256,-0.292646,-0.956206,0.020486,-0.023959,0.047454,22.024017,-26.008434,-48.921936,,,,,,,
1524434587.429749,0.006005,0.299734,2.033201,0.142357,-0.001478,-0.029738,0.005738,-0.295266,-0.955397,0.011383,-0.041343,0.037093,20.940659,-27.269268,-49.251770,,,,,,,
1524434587.449800,0.005417,0.302388,2.032392,0.132839,-0.054616,-0.045789,0.005171,-0.297801,-0.954614,0.051867,-0.039541,-0.008491,19.139359,-26.176685,-48.339844,,,,,,,
1524434587.469820,0.004964,0.305204,2.031409,0.134934,-0.018487,-0.037249,0.004734,-0.300488,-0.953773,-0.016362,-0.019870,0.025276,20.076950,-25.620155,-47.453796,,,,,,,
1524434587.489840,0.005269,0.307023,2.031214,0.071630,0.034685,0.002827,0.005023,-0.302223,-0.953224,-0.053668,-0.023308,-0.020470,20.296875,-25.740849,-46.541443,,,,,,,
1524434587.509858,0.006369,0.307726,2.031503,0.010682,0.066569,0.016273,0.006070,-0.302892,-0.953005,-0.013837,0.005651,-0.011854,20.665695,-25.111767,-46.237671,,,,,,,
1524434587.529878,0.007679,0.307905,2.031832,0.018154,0.065506,0.016323,0.007318,-0.303062,-0.952942,-0.007806,0.041649,0.032639,21.590012,-25.178772,-46.527405,,,,,,,
1524434587.549897,0.008653,0.308891,2.032069,0.063013,0.044255,0.012362,0.008244,-0.304002,-0.952635,0.009411,0.039293,0.027891,21.829483,-25.092155,-47.141968,,,,,,,
1524434587.569917,0.009088,0.310389,2.032208,0.076940,0.015562,0.003929,0.008653,-0.305429,-0.952175,0.018843,0.033685,0.005230,22.543167,-25.795830,-47.996582,,,,,,,
1524434587.589936,0.009399,0.312067,2.032241,0.078059,0.018742,-0.001393,0.008945,-0.307026,-0.951658,0.009915,0.020039,0.025984,22.858337,-26.818607,-49.068115,,,,,,,
1524434587.609957,0.009833,0.313519,2.032276,0.071628,0.031495,0.002827,0.009354,-0.308408,-0.951208,-0.005921,-0.007404,0.016470,21.843536,-27.935307,-49.579651,,,,,,,
1524434587.630007,0.010726,0.314956,2.032307,0.073791,0.049552,0.001776,0.010198,-0.309775,-0.950755,-0.014180,-0.030969,0.023600,20.478531,-28.860916,-49.506836,,,,,,,
1524434587.650026,0.011836,0.316497,2.032156,0.083517,0.051661,-0.010949,0.011248,-0.311239,-0.950264,0.003508,-0.043360,0.027520,20.101700,-27.709503,-48.566772,,,,,,,
1524434587.670045,0.012656,0.317963,2.031696,0.064445,0.025079,-0.030263,0.012022,-0.312632,-0.949798,0.020083,-0.036519,-0.004060,20.120163,-27.039703,-47.646484,,,,,,,
1524434587.690064,0.013327,0.319257,2.031030,0.075096,0.028270,-0.026994,0.012653,-0.313861,-0.949384,-0.002110,-0.002286,0.025220,20.392883,-26.667969,-46.921387,,,,,,,
1524434587.710084,0.014499,0.320527,2.030662,0.051462,0.073976,-0.005836,0.013760,-0.315067,-0.948969,-0.021969,-0.004574,-0.008718,21.694687,-26.338257,-46.573120,,,,,,,
1524434587.730103,0.016425,0.321457,2.030772,0.048201,0.112234,0.004801,0.015583,-0.315949,-0.948648,-0.029209,-0.011032,0.036462,21.732300,-26.994133,-46.669983,,,,,,,
1524434587.750124,0.018449,0.322436,2.030580,0.045178,0.081399,-0.018669,0.017497,-0.316878,-0.948304,0.014577,-0.033205,0.032121,22.472321,-26.400063,-47.255432,,,,,,,
1524434587.770143,0.019387,0.323445,2.029682,0.065651,0.000622,-0.048374,0.018380,-0.317835,-0.947967,0.055548,-0.009863,0.020019,23.557388,-27.374214,-48.134827,,,,,,,
1524434587.790163,0.018510,0.325023,2.028679,0.078345,-0.097108,-0.046157,0.017540,-0.319331,-0.947480,0.059593,0.005137,-0.001693,22.795792,-28.547258,-48.640442,,,,,,,
1524434587.810183,0.016670,0.327054,2.027417,0.124405,-0.109878,-0.063966,0.015785,-0.321255,-0.946861,0.027992,0.048550,0.055885,21.999084,-28.991793,-48.891724,,,,,,,
1524434587.830232,0.015634,0.330244,2.025911,0.165035,-0.050386,-0.063693,0.014789,-0.324273,-0.945847,-0.031039,0.017480,0.035554,20.551910,-29.218746,-48.395874,,,,,,,
1524434587.850251,0.015942,0.333268,2.024768,0.138186,0.030383,-0.037227,0.015064,-0.327133,-0.944858,-0.063968,-0.024460,0.022036,20.160980,-27.527729,-47.189392,,,,,,,
1524434587.870271,0.017373,0.335095,2.024513,0.074815,0.082496,0.010309,0.016406,-0.328859,-0.944236,-0.048083,-0.035307,-0.001153,20.361908,-26.974831,-46.417664,,,,,,,
1524434587.890290,0.019585,0.336178,2.024995,0.045858,0.145202,0.031431,0.018487,-0.329881,-0.943841,-0.027139,-0.019408,0.006905,21.461487,-26.576443,-45.580933,,,,,,,
1524434587.910311,0.022751,0.336564,2.025939,0.006270,0.184525,0.045020,0.021473,-0.330246,-0.943650,-0.042179,-0.021728,-0.021911,21.200790,-27.120804,-45.451904,,,,,,,
1524434587.930330,0.026241,0.337458,2.026723,0.064067,0.194068,0.030487,0.024759,-0.331089,-0.943274,-0.006189,0.010411,0.076773,21.684799,-27.245548,-45.499512,,,,,,,
1524434587.950350,0.029982,0.338879,2.027034,0.062132,0.183416,0.007025,0.028273,-0.332430,-0.942703,-0.000868,-0.012952,0.015655,22.438568,-27.160995,-46.313049,,,,,,,
1524434587.970368,0.033087,0.340328,2.026470,0.082775,0.118555,-0.039733,0.031184,-0.333797,-0.942128,0.057744,0.020534,0.045324,23.554367,-28.284058,-47.418518,,,,,,,
1524434587.990388,0.034929,0.341988,2.025399,0.090243,0.054803,-0.046077,0.032900,-0.335361,-0.941514,0.046980,-0.007199,0.002397,23.682861,-29.341150,-48.079346,,,,,,,
1524434588.010438,0.035668,0.344305,2.024763,0.126247,0.018723,-0.017057,0.033568,-0.337542,-0.940711,0.019075,0.024874,0.028327,22.827301,-30.191954,-48.680359,,,,,,,
1524434588.030457,0.036008,0.346555,2.024445,0.102673,0.009172,-0.008688,0.033859,-0.339660,-0.939938,0.001831,0.008621,-0.024173,21.974365,-30.754244,-48.250000,,,,,,,
1524434588.050478,0.036616,0.348456,2.024139,0.096321,0.034663,-0.011929,0.034408,-0.341447,-0.939270,-0.010955,-0.019027,0.039307,21.462341,-29.413349,-47.187134,,,,,,,
1524434588.070498,0.037241,0.350656,2.023759,0.121978,0.010222,-0.018151,0.034967,-0.343514,-0.938495,0.008322,-0.006507,0.041233,21.187225,-29.044588,-46.439331,,,,,,,
1524434588.090517,0.036916,0.353249,2.023068,0.139165,-0.048228,-0.036155,0.034629,-0.345948,-0.937614,0.041482,-0.005310,0.031699,21.773743,-28.840656,-45.693542,,,,,,,
1524434588.110537,0.035907,0.355682,2.022378,0.110173,-0.050330,-0.018230,0.033652,-0.348230,-0.936804,0.004586,-0.003912,-0.022287,22.227295,-28.828798,-45.583191,,,,,,,
1524434588.130555,0.035595,0.357916,2.022122,0.112231,-0.003572,-0.004360,0.033333,-0.350323,-0.936035,-0.032737,-0.004978,0.007720,22.191208,-28.637598,-46.055298,,,,,,,
1524434588.150575,0.035794,0.359518,2.021776,0.056812,-0.000399,-0.015392,0.033499,-0.351823,-0.935466,-0.006902,-0.009170,0.003627,23.817932,-28.935623,-46.636658,,,,,,,
1524434588.170594,0.035767,0.360058,2.021654,0.023532,-0.000372,0.004635,0.033467,-0.352329,-0.935277,-0.011265,0.018466,-0.008830,24.033737,-29.037886,-47.772339,,,,,,,
1524434588.190614,0.035637,0.360877,2.021810,0.054467,-0.007805,0.006975,0.033335,-0.353095,-0.934993,0.004721,0.031577,0.040919,23.469940,-30.400137,-48.592957,,,,,,,
1524434588.210665,0.035516,0.362307,2.021906,0.077996,0.002813,0.003936,0.033203,-0.354433,-0.934491,0.002670,0.008241,0.044751,22.638245,-31.112700,-48.617493,,,,,,,
1524434588.230684,0.035756,0.363639,2.021867,0.053496,0.021931,-0.000493,0.033411,-0.355677,-0.934011,-0.010919,-0.007085,0.003057,21.651764,-31.026373,-47.385681,,,,,,,
1524434588.250704,0.036199,0.364566,2.021712,0.045018,0.017673,-0.008011,0.033812,-0.356544,-0.933666,0.002565,0.001289,-0.011494,21.003555,-29.260729,-46.454590,,,,,,,
1524434588.270722,0.036541,0.365573,2.021491,0.065290,0.014489,-0.006809,0.034119,-0.357484,-0.933295,0.003113,0.012529,0.014426,20.924622,-28.571650,-45.472656,,,,,,,
1524434588.290742,0.036962,0.366975,2.021414,0.065185,0.023000,0.005982,0.034493,-0.358794,-0.932778,-0.008584,-0.011095,0.025582,21.998032,-28.010241,-45.063110,,,,,,,
1524434588.310755,0.037411,0.367657,2.021438,0.016083,0.014499,0.003519,0.034903,-0.359430,-0.932518,0.005273,-0.016775,-0.013542,22.468460,-28.261780,-45.141663,,,,,,,
1524434588.330775,0.037457,0.368072,2.021509,0.031008,0.002817,0.004685,0.034940,-0.359817,-0.932368,0.011095,0.010894,0.011805,22.831436,-28.227449,-45.740112,,,,,,,
1524434588.350794,0.037197,0.369249,2.021566,0.074753,-0.016304,0.006046,0.034682,-0.360915,-0.931953,0.005235,0.054046,0.017997,24.105835,-28.410288,-46.504333,,,,,,,
1524434588.370814,0.037224,0.371121,2.021625,0.095114,0.019810,0.001919,0.034682,-0.362660,-0.931275,-0.009871,0.040654,0.021042,23.193268,-29.277246,-47.672119,,,,,,,
1524434588.390864,0.037745,0.372748,2.021634,0.072695,0.031496,0.002834,0.035145,-0.364176,-0.930666,-0.017933,0.014002,0.013002,23.242828,-30.243477,-48.246399,,,,,,,
1524434588.410884,0.038313,0.373992,2.021567,0.058869,0.018740,-0.004720,0.035656,-0.365334,-0.930192,0.004551,0.008141,0.008699,22.825607,-31.413885,-48.876892,,,,,,,
1524434588.430903,0.038583,0.374965,2.021289,0.038635,0.002795,-0.012317,0.035894,-0.366240,-0.929827,0.020411,0.002577,0.011416,20.774155,-31.036291,-48.043335,,,,,,,
1524434588.450923,0.038567,0.375550,2.021279,0.028851,-0.009931,0.005737,0.035870,-0.366784,-0.929613,-0.002148,0.003472,0.007067,20.897537,-30.365501,-46.719299,,,,,,,
1524434588.470942,0.038195,0.376471,2.021461,0.060831,-0.020548,0.010215,0.035511,-0.367641,-0.929289,0.015545,0.004589,0.044202,21.466187,-29.433344,-46.099976,,,,,,,
1524434588.490962,0.037595,0.377529,2.021568,0.040548,-0.027986,0.009013,0.034940,-0.368625,-0.928920,0.004077,-0.024182,0.018978,22.080124,-28.908894,-45.585144,,,,,,,
1524434588.510981,0.037174,0.378068,2.021959,0.021227,-0.006723,0.022739,0.034541,-0.369126,-0.928736,-0.014353,-0.025711,-0.002218,22.828384,-29.528887,-45.728271,,,,,,,
1524434588.531001,0.037070,0.378874,2.022511,0.051117,0.008152,0.025072,0.034433,-0.369875,-0.928442,-0.006631,-0.018645,0.038275,22.547531,-29.513531,-46.357544,,,,,,,
1524434588.551020,0.037231,0.379943,2.022760,0.050226,0.012379,0.005880,0.034568,-0.370868,-0.928041,0.002572,-0.026334,0.025148,23.362411,-29.662598,-47.296631,,,,,,,
1524434588.571070,0.037392,0.380709,2.022561,0.031184,0.005979,-0.014499,0.034706,-0.371578,-0.927752,0.014564,-0.036457,0.013933,23.304657,-30.581032,-48.049377,,,,,,,
1524434588.591090,0.037341,0.381095,2.021998,0.016334,-0.021659,-0.028455,0.034654,-0.371937,-0.927610,0.018813,-0.028469,-0.001788,23.129654,-31.155628,-48.647400,,,,,,,
1524434588.611109,0.037003,0.381383,2.021111,0.015423,-0.037618,-0.047647,0.034336,-0.372204,-0.927515,0.021481,-0.019962,0.016397,22.076004,-32.098045,-48.905762,,,,,,,
1524434588.631129,0.036748,0.381752,2.020030,0.024002,-0.029126,-0.050786,0.034095,-0.372547,-0.927386,0.003564,-0.015454,0.020495,20.955246,-31.196447,-47.480957,,,,,,,
1524434588.651148,0.036678,0.382185,2.018754,0.019818,-0.028073,-0.060408,0.034024,-0.372948,-0.927227,0.003604,-0.009360,0.021145,21.251678,-30.030497,-46.046753,,,,,,,
1524434588.671168,0.036812,0.382541,2.017433,0.019818,-0.018512,-0.059341,0.034143,-0.373279,-0.927090,-0.003320,-0.006238,0.010754,21.031693,-29.231003,-45.251892,,,,,,,
1524434588.691188,0.036798,0.382955,2.016218,0.018672,-0.020626,-0.050822,0.034125,-0.373663,-0.926936,-0.005316,-0.014750,0.009364,21.107468,-28.774160,-44.772949,,,,,,,
1524434588.711207,0.036771,0.382775,2.015180,-0.019810,-0.026992,-0.046818,0.034102,-0.373496,-0.927004,-0.006377,-0.029855,0.002108,21.527390,-28.933449,-44.753601,,,,,,,
1524434588.731227,0.036576,0.382071,2.014120,-0.038973,-0.030188,-0.053342,0.033931,-0.372843,-0.927273,0.009328,-0.031454,0.000271,22.842377,-28.464668,-45.426697,,,,,,,
1524434588.751246,0.035823,0.381727,2.012820,-0.000456,-0.083324,-0.068005,0.033237,-0.372523,-0.927427,0.033932,-0.010899,0.032285,22.499069,-29.091913,-46.583435,,,,,,,
1524434588.771296,0.034713,0.382228,2.010835,0.041450,-0.093986,-0.098632,0.032202,-0.372988,-0.927276,0.043406,-0.001798,0.045196,22.759857,-29.870258,-47.555176,,,,,,,
1524434588.791316,0.033305,0.382414,2.009485,-0.013516,-0.090725,-0.041446,0.030894,-0.373161,-0.927251,-0.043192,-0.010918,0.001714,22.047546,-30.980598,-47.962097,,,,,,,
1524434588.811335,0.031485,0.382018,2.008781,-0.013554,-0.119408,-0.040380,0.029211,-0.372794,-0.927453,0.007609,-0.000985,0.014596,20.965912,-31.904198,-48.120605,,,,,,,
1524434588.831355,0.029590,0.381976,2.007476,-0.006876,-0.106697,-0.069114,0.027453,-0.372755,-0.927523,0.016507,0.004194,0.019564,20.760025,-30.643286,-46.778076,,,,,,,
1524434588.851374,0.028534,0.381493,2.006165,-0.026162,-0.059937,-0.056454,0.026479,-0.372307,-0.927731,-0.035955,-0.013802,0.010769,20.277756,-29.991573,-46.020142,,,,,,,
1524434588.871394,0.028123,0.381226,2.004881,0.000532,-0.038688,-0.054142,0.026101,-0.372059,-0.927841,-0.005700,0.006763,0.038712,21.092606,-29.318283,-45.135681,,,,,,,
1524434588.891413,0.027741,0.381405,2.003831,0.027149,-0.046116,-0.046502,0.025744,-0.372225,-0.927785,-0.002215,0.033052,0.006261,21.940186,-29.227642,-44.871216,,,,,,,
1524434588.911433,0.027125,0.382119,2.002849,0.032486,-0.047178,-0.046466,0.025165,-0.372887,-0.927535,0.006329,-0.011451,0.045943,21.633224,-29.813438,-45.217163,,,,,,,
1524434588.931452,0.026462,0.382294,2.001998,-0.018845,-0.052476,-0.038285,0.024548,-0.373050,-0.927485,-0.006574,-0.024548,0.001323,22.922272,-29.316631,-45.575256,,,,,,,
1524434588.951502,0.025060,0.381153,2.001297,-0.074466,-0.099214,-0.032264,0.023259,-0.371991,-0.927944,0.015468,-0.013385,-0.023564,22.607956,-30.178619,-46.830261,,,,,,,
1524434588.971522,0.022806,0.379663,2.000640,-0.069174,-0.135330,-0.031162,0.021180,-0.370607,-0.928547,0.032852,0.005769,0.010518,22.419083,-30.932898,-47.729919,,,,,,,
1524434588.991542,0.020156,0.378431,2.000265,-0.060793,-0.132121,-0.012986,0.018728,-0.369463,-0.929056,-0.005484,0.015947,0.004495,22.632339,-31.184563,-48.188416,,,,,,,
1524434589.011561,0.017818,0.377299,2.000113,-0.049056,-0.110870,-0.009710,0.016564,-0.368410,-0.929515,-0.018563,0.004382,0.022166,21.436768,-32.200157,-47.928955,,,,,,,
1524434589.031581,0.016322,0.376873,1.999564,-0.002892,-0.076906,-0.033914,0.015176,-0.368014,-0.929695,-0.003961,-0.004529,0.046883,20.163971,-30.962006,-46.789795,,,,,,,
1524434589.051600,0.015324,0.377423,1.998668,0.044246,-0.059929,-0.049584,0.014245,-0.368526,-0.929507,0.002403,0.003612,0.045627,20.517441,-30.251398,-45.611328,,,,,,,
1524434589.071620,0.014509,0.378791,1.997677,0.075077,-0.047162,-0.033389,0.013480,-0.369798,-0.929014,-0.008140,0.030870,0.019163,20.682922,-30.151861,-44.437073,,,,,,,
1524434589.091639,0.014483,0.379938,1.997221,0.045044,0.005983,-0.012275,0.013450,-0.370863,-0.928589,-0.040916,-0.007876,0.023408,20.735031,-29.568457,-43.941406,,,,,,,
1524434589.111659,0.014817,0.380422,1.997056,0.016214,0.012358,-0.011403,0.013757,-0.371313,-0.928405,-0.007119,-0.010050,0.010955,21.333710,-29.418339,-44.258057,,,,,,,
1524434589.131709,0.014719,0.380548,1.996651,0.005532,-0.031203,-0.015738,0.013666,-0.371430,-0.928360,0.025336,0.000687,0.002517,22.209290,-28.867130,-45.100098,,,,,,,
1524434589.151728,0.013973,0.380517,1.996379,-0.019078,-0.047133,-0.011640,0.012973,-0.371401,-0.928381,0.017330,-0.028898,0.003317,22.353653,-29.920341,-46.352966,,,,,,,
1524434589.171748,0.013081,0.379156,1.996389,-0.092884,-0.039676,0.003851,0.012152,-0.370137,-0.928897,-0.020956,-0.033321,-0.015866,22.624634,-30.978685,-47.226990,,,,,,,
1524434589.191767,0.011869,0.377273,1.996604,-0.079089,-0.076851,0.009273,0.011034,-0.368386,-0.929606,0.012586,-0.001700,0.024730,22.577545,-31.762918,-47.683350,,,,,,,
1524434589.211787,0.009598,0.377076,1.996491,0.031093,-0.133195,-0.019828,0.008924,-0.368203,-0.929702,0.067202,0.052636,0.032241,20.707291,-32.066925,-47.437805,,,,,,,
1524434589.231806,0.007841,0.377942,1.996007,0.026836,-0.051383,-0.012397,0.007288,-0.369009,-0.929397,-0.045434,0.005697,0.019530,20.017654,-31.227047,-46.245850,,,,,,,
1524434589.251826,0.008031,0.377740,1.996311,-0.019382,0.032595,0.030992,0.007465,-0.368821,-0.929470,-0.093860,-0.028472,0.027446,20.056076,-30.666157,-45.374329,,,,,,,
1524434589.271845,0.008746,0.377460,1.996764,0.001122,0.040002,0.007681,0.008130,-0.368560,-0.929568,0.023700,0.001647,0.016192,20.576614,-30.470312,-44.594910,,,,,,,
1524434589.291865,0.008559,0.378117,1.996532,0.052496,-0.034387,-0.014356,0.007954,-0.369171,-0.929327,0.055492,0.061309,-0.019144,21.673828,-30.379709,-44.785400,,,,,,,
1524434589.311909,0.008250,0.378679,1.996427,0.018197,-0.015247,0.002467,0.007665,-0.369693,-0.929121,-0.031652,0.016818,0.000945,22.544342,-30.386625,-45.827454,,,,,,,
1524434589.331959,0.008101,0.378827,1.996644,-0.010774,0.021959,0.022524,0.007526,-0.369831,-0.929068,-0.020695,0.035709,0.010351,23.087692,-31.419353,-46.891357,,,,,,,
1524434589.351978,0.008692,0.378876,1.997091,0.028776,0.040016,0.019592,0.008075,-0.369877,-0.929045,-0.015827,0.027332,0.059035,23.021881,-32.294624,-47.853149,,,,,,,
1524434589.371998,0.008980,0.380027,1.997189,0.074861,0.004930,-0.003546,0.008340,-0.370945,-0.928617,0.039039,0.028004,0.073575,22.403992,-32.852604,-48.180908,,,,,,,
1524434589.392017,0.009186,0.381118,1.996865,0.030182,0.005972,-0.021968,0.008527,-0.371958,-0.928209,0.003467,0.001246,-0.007917,20.330276,-33.422005,-47.588257,,,,,,,
1524434589.412037,0.009062,0.380665,1.996586,-0.052176,-0.017382,-0.008666,0.008414,-0.371538,-0.928379,-0.005667,-0.008009,-0.062649,19.930054,-32.593590,-46.286316,,,,,,,
1524434589.432056,0.008442,0.379265,1.996605,-0.068279,-0.038620,-0.001313,0.007842,-0.370238,-0.928903,0.006700,0.002577,-0.009207,20.082352,-31.558287,-45.358276,,,,,,,
1524434589.452076,0.007476,0.377868,1.996686,-0.057643,-0.051364,0.001956,0.006948,-0.368940,-0.929427,0.006662,0.013929,0.042860,21.211227,-30.912796,-44.094299,,,,,,,
1524434589.472095,0.006475,0.377244,1.996551,-0.024436,-0.047129,-0.009545,0.006020,-0.368360,-0.929663,0.017509,0.002439,0.046103,22.108734,-31.361084,-43.916809,,,,,,,
1524434589.492115,0.005704,0.376771,1.996286,-0.028728,-0.040755,-0.006375,0.005304,-0.367920,-0.929842,-0.017831,-0.006317,-0.010069,21.895187,-30.778509,-44.065796,,,,,,,
1524434589.512165,0.005195,0.376195,1.996369,-0.022429,-0.022676,0.007523,0.004831,-0.367384,-0.930056,-0.016291,-0.010409,0.017794,22.397247,-30.310163,-45.191101,,,,,,,
1524434589.532184,0.004498,0.376127,1.996513,0.010664,-0.036488,0.006680,0.004184,-0.367321,-0.930084,0.019635,0.005428,0.047272,22.303864,-31.102871,-46.349365,,,,,,,
1524434589.552204,0.003837,0.376151,1.996582,-0.012843,-0.025858,0.009719,0.003569,-0.367343,-0.930078,-0.000944,-0.006665,0.002740,21.689163,-31.716066,-47.038025,,,,,,,
1524434589.572223,0.003427,0.375285,1.997102,-0.058906,-0.006713,0.028594,0.003189,-0.366538,-0.930397,-0.028320,-0.009805,-0.009972,21.467209,-32.993137,-47.289062,,,,,,,
1524434589.592243,0.002972,0.374026,1.997947,-0.059055,-0.012004,0.044581,0.002766,-0.365366,-0.930859,0.001720,0.005915,0.023770,19.997833,-32.520607,-46.421448,,,,,,,
1524434589.612263,0.002442,0.372897,1.998815,-0.059047,-0.013067,0.043515,0.002274,-0.364315,-0.931272,0.009902,-0.001789,0.031446,19.902756,-31.362070,-45.534912,,,,,,,
1524434589.632282,0.002085,0.371226,1.999743,-0.104958,0.003932,0.045338,0.001943,-0.362758,-0.931881,-0.004217,-0.007924,-0.012654,20.082596,-30.920353,-44.651184,,,,,,,
1524434589.652302,0.001510,0.368979,2.001029,-0.109401,-0.005607,0.063427,0.001408,-0.360663,-0.932694,-0.003911,0.002890,0.003877,20.359100,-30.713638,-44.244141,,,,,,,
1524434589.672321,0.000652,0.367220,2.002526,-0.064753,-0.035328,0.081848,0.000608,-0.359022,-0.933328,0.015322,0.008924,0.045999,21.362442,-30.882025,-44.212463,,,,,,,
1524434589.692371,-0.000375,0.366220,2.003993,-0.037993,-0.034276,0.074567,-0.000350,-0.358089,-0.933687,0.006896,0.004924,0.021806,21.146362,-30.424286,-44.901978,,,,,,,
1524434589.712391,-0.001373,0.365422,2.005408,-0.030448,-0.020474,0.068223,-0.001282,-0.357344,-0.933971,-0.001037,-0.007570,0.021954,21.843048,-30.568659,-45.929871,,,,,,,
1524434589.732410,-0.002030,0.364984,2.007140,-0.028488,0.014611,0.091685,-0.001897,-0.356934,-0.934127,-0.017070,-0.028014,0.028441,22.402466,-31.345539,-46.824463,,,,,,,
1524434589.752430,-0.002641,0.364007,2.009661,-0.061969,0.014665,0.134094,-0.002468,-0.356022,-0.934474,-0.024952,-0.020642,-0.004949,21.955612,-32.102276,-47.608093,,,,,,,
1524434589.772449,-0.003692,0.362696,2.012772,-0.066419,-0.010809,0.151118,-0.003452,-0.354796,-0.934936,0.003314,-0.010362,0.012695,20.765762,-33.205891,-47.881287,,,,,,,
1524434589.792469,-0.005468,0.361263,2.016329,-0.074152,-0.030961,0.177712,-0.005115,-0.353456,-0.935436,0.006061,-0.011763,0.011257,19.370743,-32.150917,-46.723511,,,,,,,
1524434589.812488,-0.007602,0.359338,2.020743,-0.107595,-0.029848,0.215858,-0.007117,-0.351654,-0.936102,-0.009653,-0.019943,0.005286,19.129669,-31.222305,-45.813477,,,,,,,
1524434589.832508,-0.010336,0.357168,2.025734,-0.108897,-0.054255,0.239298,-0.009684,-0.349623,-0.936840,-0.001028,-0.008455,0.021114,19.740189,-30.474680,-45.036926,,,,,,,
1524434589.852527,-0.013023,0.354963,2.030419,-0.108608,-0.053233,0.207325,-0.012211,-0.347555,-0.937579,0.013829,0.012381,0.010272,20.294312,-29.751463,-44.707581,,,,,,,
1524434589.872577,-0.015631,0.353237,2.034217,-0.064409,-0.069228,0.158593,-0.014665,-0.345937,-0.938143,0.034303,0.010564,0.034761,20.303558,-30.352360,-44.729370,,,,,,,
1524434589.892597,-0.017842,0.352138,2.037122,-0.052377,-0.050143,0.128829,-0.016746,-0.344906,-0.938487,0.009437,-0.009998,0.028239,21.038345,-29.455801,-45.445557,,,,,,,
1524434589.912617,-0.019203,0.350964,2.039709,-0.059750,-0.006595,0.122384,-0.018031,-0.343803,-0.938868,-0.018636,-0.016198,0.013743,21.489395,-29.932766,-45.800171,,,,,,,
1524434589.932636,-0.020335,0.349847,2.042195,-0.058639,-0.021478,0.115997,-0.019102,-0.342754,-0.939230,0.001539,-0.019841,0.027045,21.387268,-31.246449,-46.675903,,,,,,,
1524434589.952656,-0.021441,0.348349,2.044076,-0.078623,-0.025767,0.081754,-0.020152,-0.341347,-0.939721,0.015544,-0.018028,0.004006,20.577728,-31.021749,-47.267212,,,,,,,
1524434589.972675,-0.022653,0.346189,2.045803,-0.119247,-0.031073,0.086810,-0.021307,-0.339315,-0.940431,0.011664,-0.014674,-0.002608,19.731293,-31.315025,-47.379211,,,,,,,
1524434589.992695,-0.024382,0.343427,2.048090,-0.142044,-0.060769,0.125027,-0.022956,-0.336716,-0.941326,0.001228,-0.017761,0.003353,18.423843,-30.164692,-46.522827,,,,,,,
1524434590.012714,-0.027009,0.340625,2.050898,-0.133742,-0.108546,0.146401,-0.025455,-0.334076,-0.942202,0.018451,-0.025604,0.007051,18.566254,-29.593990,-45.610962,,,,,,,
